DISTRICT,ST_NM,ST_CEN_CD,DT_CEN_CD,censuscode,longitude,latitude,x_utm44n,y_utm44n
Adilabad,Andhra Pradesh,28,1,532,78.972134,19.256458,286861.4,2130448.7
Agra,Uttar Pradesh,9,15,146,78.079466,27.037660,210261.1,2993965.1
Ahmadabad,Gujarat,24,7,474,72.195952,22.710023,-406688.6,2538459.5
Ahmadnagar,Maharashtra,27,26,522,74.676902,19.203495,-165758.6,2135462.1
Aizawl,Mizoram,15,3,283,92.889055,23.810620,1716930.2,2684733.5
Ajmer,Rajasthan,8,21,119,74.775167,26.229897,-122500.2,2916128.3
Akola,Maharashtra,27,5,501,77.053286,20.748908,88895.5,2299380.7
Alappuzha,Kerala,32,11,598,76.449580,9.423558,-60.5,1044936.5
Aligarh,Uttar Pradesh,9,12,143,78.079311,27.926866,212566.4,3092534.1
Alirajpur,Madhya Pradesh,23,48,465,74.364523,22.313841,-184498.5,2482660.9
Allahabad,Uttar Pradesh,9,44,175,81.971718,25.298896,597820.2,2798399.3
Almora,Uttarakhand,5,9,64,79.501938,29.689198,355058.8,3285285.4
Alwar,Rajasthan,8,6,104,76.606022,27.591473,66110.2,3059664.8
Ambala,Haryana,6,2,70,76.942196,30.328536,109768.8,3362175.8
Ambedkar Nagar,Uttar Pradesh,9,47,178,82.668547,26.420062,666400.3,2923282.7
Amravati,Maharashtra,27,7,503,77.572016,21.187840,144023.3,2346788.7
Amreli,Gujarat,24,13,480,71.216451,21.383897,-517825.4,2396535.5
Amritsar,Punjab,3,15,49,74.900668,31.704612,-78445.7,3523913.6
Anand,Gujarat,24,15,482,72.777328,22.447978,-348135.5,2505762.0
Anantapur,Andhra Pradesh,28,22,553,77.576878,14.481028,130922.8,1603686.1
Anantnag,Jammu & Kashmir,1,14,14,75.357499,33.815203,-22521.8,3756012.9
Anjaw,Arunanchal Pradesh,12,16,260,96.828778,28.065489,2066484.2,3207969.0
Anugul,Odisha,21,15,384,84.908959,20.986366,906526.5,2325610.6
Anuppur,Madhya Pradesh,23,44,461,81.683994,23.056741,570068.5,2549964.8
Araria,Bihar,10,7,209,87.354341,26.199497,1135649.8,2913381.4
Ariyalur,Tamil Nadu,33,15,616,79.244223,11.160536,308268.7,1234298.8
Ashoknagar,Madhya Pradesh,23,42,459,77.875198,24.609367,183584.3,2725290.1
Auraiya,Uttar Pradesh,9,31,162,79.482755,26.660686,349006.5,2949751.2
Aurangabad,Bihar,10,33,235,84.412197,24.792871,845031.9,2746324.7
Aurangabad,Maharashtra,27,19,515,75.273450,20.021515,-99715.3,2224147.1
Azamgarh,Uttar Pradesh,9,60,191,83.069655,26.047042,707071.6,2882536.2
Badgam,Jammu & Kashmir,1,2,2,74.662969,33.890006,-86418.9,3768087.3
Bagalkot,Karnataka,29,2,556,75.625376,16.220549,-75121.4,1800882.5
Bageshwar,Uttarakhand,5,8,63,79.859606,29.991112,389998.2,3318347.7
Baghpat,Uttar Pradesh,9,8,139,77.312862,29.055273,140932.4,3219725.4
Bahraich,Uttar Pradesh,9,49,180,81.451867,27.736385,544536.6,3068082.6
Baksa,Assam,18,25,324,91.346514,26.664847,1532925.6,2991470.2
Balaghat,Madhya Pradesh,23,40,457,80.360611,21.880763,433945.7,2419766.5
Balangir,Odisha,21,24,393,83.173883,20.590462,726580.8,2278336.2
Baleshwar,Odisha,21,8,377,86.917045,21.489779,1113726.5,2387992.3
Ballia,Uttar Pradesh,9,62,193,84.105463,25.875384,811209.7,2865566.6
Balrampur,Uttar Pradesh,9,51,182,82.377593,27.484972,636094.5,3040907.3
Banas Kantha,Gujarat,24,2,469,72.031936,24.283524,-412622.8,2715152.7
Banda,Uttar Pradesh,9,39,170,80.561799,25.465005,455948.8,2816511.1
Bandipore,Jammu & Kashmir,1,9,9,74.828318,34.504036,-66948.0,3835381.5
Bangalore Rural,Karnataka,29,29,583,77.575011,13.225668,128728.6,1464632.7
Bangalore,Karnataka,29,18,572,77.595936,12.950835,130589.3,1434160.3
Banka,Bihar,10,23,225,86.840858,24.853693,1090761.4,2761433.1
Bankura,West Bengal,19,13,339,87.134957,23.140980,1128901.0,2572393.0
Banswara,Rajasthan,8,27,125,74.363902,23.475174,-178716.3,2611828.0
Bara Banki,Uttar Pradesh,9,45,176,81.327403,26.938642,532501.0,2979681.4
Bargarh,Odisha,21,1,370,83.353441,21.220225,744280.8,2348337.4
Baramula,Jammu & Kashmir,1,8,8,74.463392,34.162740,-102973.6,3799565.2
Baran,Rajasthan,8,30,128,76.756590,24.995174,71528.5,2771125.9
Barddhaman,West Bengal,19,9,335,87.767732,23.427770,1192471.2,2607187.0
Bareilly,Uttar Pradesh,9,19,150,79.422282,28.449429,345512.4,3148002.9
Barmer,Rajasthan,8,17,115,71.473268,25.735584,-458302.9,2881209.2
Barnala,Punjab,3,20,54,75.504800,30.397194,-28273.7,3375642.1
Barpeta,Assam,18,4,303,91.010841,26.340183,1502065.1,2952462.8
Barwani,Madhya Pradesh,23,24,441,75.021316,21.787373,-118859.7,2421306.8
Bastar,Chhattisgarh,22,15,414,81.770259,19.421963,580865.0,2147698.5
Basti,Uttar Pradesh,9,54,185,82.631087,26.818345,662100.9,2967356.7
Bathinda,Punjab,3,12,46,75.040659,30.182766,-74223.6,3354085.5
Bauda,Odisha,21,22,391,84.177645,20.646815,831147.9,2286300.7
Begusarai,Bihar,10,20,222,86.130844,25.495287,1016094.3,2829756.4
Belgaum,Karnataka,29,1,555,74.822982,16.119442,-161586.6,1792076.6
Bellary,Karnataka,29,11,565,76.533357,15.109563,19624.5,1675332.2
Betul,Madhya Pradesh,23,30,447,77.871040,21.877963,176633.6,2422611.7
Bhadrak,Odisha,21,9,378,86.625402,20.985859,1085400.4,2330897.7
Bhagalpur,Bihar,10,22,224,87.084374,25.270485,1113358.8,2808836.2
Bhandara,Maharashtra,27,10,506,79.750896,21.129211,370286.5,2336957.6
Bharatpur,Rajasthan,8,7,105,77.278828,27.245655,131457.3,3019128.2
Bharuch,Gujarat,24,21,488,72.925147,21.786403,-336755.8,2431169.6
Bhavnagar,Gujarat,24,14,481,71.841052,21.666564,-450552.7,2424137.5
Bhilwara,Rajasthan,8,24,122,74.729072,25.479968,-131115.9,2832993.0
Bhind,Madhya Pradesh,23,3,420,78.722647,26.421080,272870.1,2924326.4
Bhiwani,Haryana,6,13,81,75.967617,28.717943,8179.0,3187132.0
Bhojpur,Bihar,10,29,231,84.543681,25.469046,856366.4,2821629.2
Bhopal,Madhya Pradesh,23,27,444,77.396076,23.477960,131810.7,2601048.8
Bid,Maharashtra,27,27,523,75.869679,18.930415,-40764.3,2100997.2
Bidar,Karnataka,29,4,558,77.226454,17.952829,100180.7,1989029.2
Bijapur,Chhattisgarh,22,18,417,80.776100,18.843216,476412.5,2083494.6
Bijapur,Karnataka,29,3,557,75.953096,16.793724,-38377.0,1863599.6
Bijnor,Uttar Pradesh,9,3,134,78.398756,29.386983,247543.2,3253674.6
Bikaner,Rajasthan,8,3,101,73.177397,28.177724,-269203.7,3141785.5
Bilaspur,Chhattisgarh,22,7,406,81.961668,22.351317,599021.2,2472029.7
Bilaspur,Himachal Pradesh,2,8,30,76.671902,31.372313,88247.0,3478970.6
Birbhum,West Bengal,19,8,334,87.666478,23.953559,1179331.9,2665179.3
Bishnupur,Manipur,14,4,275,93.801093,24.535221,1803711.6,2774647.5
Bokaro,Jharkhand,20,10,355,85.988030,23.691536,1008978.1,2628993.5
Bongaigaon,Assam,18,20,319,90.624781,26.365205,1462984.7,2952272.8
Budaun,Uttar Pradesh,9,18,149,78.945362,28.115296,298174.0,3111680.3
Bulandshahr,Uttar Pradesh,9,11,142,78.012305,28.357574,207144.3,3140442.5
Buldana,Maharashtra,27,4,500,76.408266,20.511057,20860.1,2274773.8
Bundi,Rajasthan,8,23,121,75.777479,25.470040,-25442.0,2827313.4
Burhanpur,Madhya Pradesh,23,50,467,76.370196,21.372051,19645.9,2370407.7
Buxar,Bihar,10,30,232,84.101822,25.491436,811844.0,2823000.8
Cachar,Assam,18,17,316,92.856422,24.811249,1703843.3,2796822.1
Central,NCT of Delhi,7,6,95,77.219675,28.643118,130393.1,3174297.4
Chamba,Himachal Pradesh,2,1,23,76.354250,32.677454,64240.7,3625081.4
Chamoli,Uttarakhand,5,2,57,79.578739,30.495348,363601.8,3374534.6
Champawat,Uttarakhand,5,10,65,80.069735,29.298847,409652.0,3241455.0
Champhai,Mizoram,15,4,284,93.240017,23.529404,1755974.7,2656244.6
Chamrajnagar,Karnataka,29,24,578,77.099755,11.956894,75053.4,1324787.0
Chandauli,Uttar Pradesh,9,65,196,83.261087,25.137431,727949.3,2782076.8
Chandel,Manipur,14,9,280,94.093184,24.235492,1837040.4,2743756.0
Chandigarh,Chandigarh,4,1,55,76.781472,30.730057,95968.2,3407295.2
Chandrapur,Maharashtra,27,13,509,79.443771,20.117928,337316.5,2225291.3
Changlang,Arunanchal Pradesh,12,9,253,96.345176,27.362646,2028120.4,3122150.7
Chatra,Jharkhand,20,2,347,84.887101,24.173543,895032.0,2678933.4
Chennai,Tamil Nadu,33,2,603,80.252310,13.064698,418938.4,1444410.0
Chhatarpur,Madhya Pradesh,23,8,425,79.666144,24.796652,365172.4,2743089.9
Chhindwara,Madhya Pradesh,23,38,455,78.855490,22.121379,278793.5,2447821.4
Chikkaballapura,Karnataka,29,28,582,77.836189,13.578232,157567.8,1503302.9
Chikmagalur,Karnataka,29,16,570,75.691344,13.454274,-75352.2,1493587.8
Chirang,Assam,18,21,320,90.616292,26.642974,1459784.4,2983234.8
Chitradurga,Karnataka,29,12,566,76.516426,14.167503,15730.0,1570895.9
Chitrakoot,Uttar Pradesh,9,40,171,81.089623,25.205111,509028.7,2787662.8
Chittaurgarh,Rajasthan,8,28,126,74.779796,24.828686,-129352.1,2760361.4
Chittoor,Andhra Pradesh,28,23,554,79.014303,13.467228,285039.6,1489673.3
Churachandpur,Manipur,14,3,274,93.426876,24.289772,1767713.7,2743465.7
Churu,Rajasthan,8,4,102,74.698516,28.345505,-118279.1,3151661.4
Coimbatore,Tamil Nadu,33,31,632,76.975580,10.874524,59833.5,1205025.5
Cuddalore,Tamil Nadu,33,16,617,79.450898,11.535031,331063.6,1275595.9
Y.s.r.,Andhra Pradesh,28,20,551,78.783565,14.459869,261076.5,1599740.8
Cuttack,Odisha,21,12,381,85.705745,20.449593,991253.2,2268293.9
Dadra & Nagar Haveli,Dadara & Nagar Havelli,26,1,496,73.070653,20.195053,-330457.8,2252993.1
Dakshin Bastar Dantewada,Chhattisgarh,22,17,416,81.379640,18.499958,540075.1,2045542.5
Dakshin Dinajpur,West Bengal,19,5,331,88.588184,25.364006,1264874.2,2827036.1
Dakshina Kannada,Karnataka,29,21,575,75.266651,12.838221,-123076.4,1426189.2
Daman,Daman & Diu,25,2,495,72.852354,20.414065,-352224.1,2278538.4
Damoh,Madhya Pradesh,23,11,428,79.527307,23.812785,349983.7,2634278.0
Darbhanga,Bihar,10,13,215,86.025289,26.113796,1002831.2,2898008.5
Darjiling,West Bengal,19,1,327,88.394682,26.913465,1235437.7,2998411.0
Darrang,Assam,18,26,325,92.037403,26.449265,1604501.7,2973213.0
Data Not Available,Jammu & Kashmir,99,99,0,74.903832,35.530808,-53009.7,3949045.1
Datia,Madhya Pradesh,23,5,422,78.568758,25.850458,256334.1,2861378.2
Davanagere,Karnataka,29,13,567,75.954770,14.408032,-44484.2,1598829.6
Debagarh,Odisha,21,4,373,84.803714,21.465936,894289.2,2378509.8
Dehradun,Uttarakhand,5,5,60,77.973247,30.463505,209376.6,3374041.4
Deoghar,Jharkhand,20,5,350,86.741141,24.327974,1083097.0,2702600.7
Deoria,Uttar Pradesh,9,59,190,83.836566,26.422737,782923.4,2925618.8
Dewas,Madhya Pradesh,23,20,437,76.456403,22.745090,33150.1,2522468.9
Dhalai,Tripura,16,3,291,91.925906,23.843072,1617213.4,2680269.3
Dhamtari,Chhattisgarh,22,13,412,81.810500,20.556139,584483.0,2273235.4
Dhanbad,Jharkhand,20,9,354,86.471943,23.829260,1057864.0,2646108.1
Dhar,Madhya Pradesh,23,21,438,75.104139,22.497429,-107193.4,2499870.1
Dharmapuri,Tamil Nadu,33,29,630,78.195788,12.096885,194733.6,1338833.5
Dharwad,Karnataka,29,8,562,75.153839,15.389352,-128297.7,1709918.7
Dhaulpur,Rajasthan,8,8,106,77.703343,26.680788,171894.3,2955321.8
Dhemaji,Assam,18,9,308,94.777818,27.577746,1867458.6,3127513.5
Dhenkanal,Odisha,21,14,383,85.526213,20.826175,971315.2,2309538.5
Dhubri,Assam,18,2,301,90.022375,26.067486,1404729.5,2914632.1
Dhule,Maharashtra,27,2,498,74.601095,21.109877,-165574.3,2347732.6
Dibang Valley,Arunanchal Pradesh,12,13,257,95.902753,28.951303,1960955.4,3295912.9
Dibrugarh,Assam,18,11,310,95.056174,27.366443,1898150.9,3106906.6
Dindigul,Tamil Nadu,33,11,612,77.820035,10.389760,151745.1,1150250.5
Dindori,Madhya Pradesh,23,36,453,81.056101,22.888939,505754.0,2531226.6
Diu,Daman & Diu,25,1,494,70.939868,20.720892,-551546.9,2324157.5
Doda,Jammu & Kashmir,1,16,16,75.649701,33.100814,471.8,3675222.9
Dohad,Gujarat,24,18,485,74.115950,22.857274,-207423.9,2544282.5
Dumka,Jharkhand,20,17,362,87.266637,24.319676,1136646.3,2703996.7
Dungarpur,Rajasthan,8,26,124,73.855135,23.732488,-229492.7,2642980.3
Durg,Chhattisgarh,22,10,409,81.353843,21.191189,536727.6,2343348.3
Dimapur,Nagaland,13,5,265,93.785084,25.778525,1788566.5,2914378.2
East,NCT of Delhi,7,4,93,77.298023,28.629248,138011.4,3172518.8
East,Sikkim,11,4,244,88.678047,27.292758,1261123.9,3042337.8
East Garo Hills,Meghalaya,17,2,294,90.634221,25.735169,1469182.3,2881960.1
East Godavari,Andhra Pradesh,28,14,545,82.011832,17.188549,607599.1,1900694.2
East Kameng,Arunanchal Pradesh,12,3,247,92.968009,27.441116,1687725.6,3093007.5
East Khasi Hills,Meghalaya,17,6,298,91.800651,25.380404,1590617.7,2851481.9
East Nimar,Madhya Pradesh,23,49,466,76.571439,21.936186,42345.2,2432380.0
East Siang,Arunanchal Pradesh,12,7,251,95.163393,28.123786,1898910.9,3193508.0
Ernakulam,Kerala,32,8,595,76.472682,10.057658,3425.3,1115218.9
Erode,Tamil Nadu,33,9,610,77.414302,11.515201,108743.8,1275392.8
Etah,Uttar Pradesh,9,70,201,78.713186,27.512064,274115.4,3045236.2
Etawah,Uttar Pradesh,9,30,161,79.096551,26.759287,310727.7,2961190.4
Faizabad,Uttar Pradesh,9,46,177,81.992424,26.658914,598761.8,2949041.5
Faridabad,Haryana,6,20,88,77.354765,28.332720,142564.8,3139461.2
Faridkot,Punjab,3,11,45,74.779169,30.610863,-96844.0,3403016.6
Farrukhabad,Uttar Pradesh,9,28,159,79.461343,27.430377,347916.7,3035045.8
Fatehabad,Haryana,6,10,78,75.579159,29.576428,-25438.1,3284143.6
Fatehgarh Sahib,Punjab,3,6,40,76.365316,30.632221,55621.4,3398014.2
Fatehpur,Uttar Pradesh,9,41,172,80.806992,25.873335,480663.5,2861670.8
Firozabad,Uttar Pradesh,9,16,147,78.539867,27.180605,256264.6,3008830.4
Firozpur,Punjab,3,9,43,74.400903,30.560487,-133540.9,3399496.5
Gadag,Karnataka,29,7,561,75.666278,15.431066,-72965.5,1713115.7
Gajapati,Odisha,21,20,389,84.160680,19.173383,832448.3,2123025.8
Ganderbal,Jammu & Kashmir,1,11,11,75.199964,34.294666,-34099.1,3810091.8
Gandhinagar,Gujarat,24,6,473,72.692335,23.255005,-351841.9,2596249.3
Ganganagar,Rajasthan,8,1,99,73.563155,29.395477,-222630.9,3274904.1
Ganjam,Odisha,21,19,388,84.671068,19.626933,885115.0,2174346.7
Garhchiroli,Maharashtra,27,12,508,80.241083,19.784918,420504.2,2187858.8
Garhwa,Jharkhand,20,1,346,83.699326,24.101049,774404.7,2668055.0
Garhwal,Uttarakhand,5,6,61,78.769623,29.892869,284627.1,3309004.3
Gautam Buddha Nagar,Uttar Pradesh,9,10,141,77.547057,28.397862,161640.1,3146129.6
Gaya,Bihar,10,34,236,84.935995,24.699076,898347.3,2737350.8
Ghaziabad,Uttar Pradesh,9,9,140,77.706707,28.738921,178334.8,3183508.9
Ghazipur,Uttar Pradesh,9,64,195,83.556211,25.622446,756685.5,2836350.4
Giridih,Jharkhand,20,4,349,86.110286,24.296357,1019033.7,2696578.9
Goalpara,Assam,18,3,302,90.605506,26.055456,1463631.8,2917526.6
Godda,Jharkhand,20,6,351,87.312123,24.859581,1138517.0,2764225.8
Golaghat,Assam,18,14,313,93.833443,26.457267,1785834.4,2991199.3
Gonda,Uttar Pradesh,9,52,183,82.025569,27.084110,601679.4,2996165.6
Gondiya,Maharashtra,27,11,507,80.205352,21.148971,417493.5,2338841.3
Gopalganj,Bihar,10,15,217,84.377309,26.442745,836834.7,2929140.6
Gorakhpur,Uttar Pradesh,9,57,188,83.361434,26.657783,735035.2,2950706.4
Gulbarga,Karnataka,29,25,579,76.869488,17.260174,60630.4,1913042.1
Gumla,Jharkhand,20,21,366,84.534676,23.102262,862125.6,2559226.8
Guna,Madhya Pradesh,23,41,458,77.200820,24.554642,115069.6,2720944.0
Guntur,Andhra Pradesh,28,17,548,80.091523,16.298807,402942.9,1802204.2
Gurdaspur,Punjab,3,1,35,75.386443,32.024197,-30464.8,3556924.8
Gurgaon,Haryana,6,18,86,76.940774,28.368061,102067.2,3144680.3
Gwalior,Madhya Pradesh,23,4,421,78.219572,26.011378,221700.4,2879906.7
Hailakandi,Assam,18,19,318,92.588773,24.494118,1679467.4,2758846.4
Hamirpur,Himachal Pradesh,2,6,28,76.525766,31.668041,75674.3,3512350.5
Hamirpur,Uttar Pradesh,9,37,168,79.878936,25.731610,387548.3,2846439.6
Hanumangarh,Rajasthan,8,2,100,74.549011,29.271390,-127373.4,3255369.3
Haora,West Bengal,19,15,341,88.067519,22.526034,1228107.3,2508317.3
Harda,Madhya Pradesh,23,31,448,77.121103,22.234178,100058.1,2463875.6
Hardoi,Uttar Pradesh,9,24,155,80.162509,27.328706,417149.4,3023121.4
Hardwar,Uttarakhand,5,13,68,78.001213,29.871812,210335.9,3308358.9
Hassan,Karnataka,29,20,574,76.109064,12.995356,-30973.4,1441727.5
Mahamaya Nagar,Uttar Pradesh,9,13,144,78.161576,27.577588,219772.3,3053626.2
Haveri,Karnataka,29,10,564,75.417714,14.738084,-101696.3,1636831.3
Hazaribagh,Jharkhand,20,15,360,85.413211,23.989979,949206.5,2660160.4
Hingoli,Maharashtra,27,16,512,77.118900,19.615157,92796.3,2173530.3
Hisar,Haryana,6,12,80,75.815609,29.215092,-4273.0,3242971.3
Hoshangabad,Madhya Pradesh,23,32,449,77.988932,22.588285,190392.1,2501071.0
Hoshiarpur,Punjab,3,4,38,75.858765,31.626010,12125.5,3510480.0
Hugli,West Bengal,19,12,338,88.079813,22.884702,1227464.6,2548295.6
Hyderabad,Andhra Pradesh,28,5,536,78.469940,17.389835,231183.0,1924456.1
Idukki,Kerala,32,9,596,77.027463,9.882198,64141.0,1094984.2
Imphal East,Manipur,14,7,278,93.942121,24.816553,1815195.2,2807700.2
Imphal West,Manipur,14,6,277,93.154398,24.681600,1735704.5,2784980.9
Indore,Madhya Pradesh,23,22,439,75.782176,22.713058,-36378.0,2521204.2
Jabalpur,Madhya Pradesh,23,34,451,79.976503,23.232563,395287.1,2569633.8
Jagatsinghapur,Odisha,21,11,380,86.343651,20.221820,1058807.4,2245053.8
Jaintia Hills,Meghalaya,17,7,299,92.381076,25.368353,1649822.4,2855096.3
Jaipur,Rajasthan,8,12,110,75.724310,26.980451,-23957.5,2995234.4
Jaisalmer,Rajasthan,8,16,114,70.903385,27.077400,-504108.4,3035554.6
Jajapur,Odisha,21,13,382,86.152197,20.855928,1036517.4,2314807.2
Jalandhar,Punjab,3,3,37,75.566577,31.212615,-17914.7,3465915.1
Jalaun,Uttar Pradesh,9,34,165,79.387426,26.091189,338729.0,2886780.8
Jalgaon,Maharashtra,27,3,499,75.489905,20.935515,-73566.1,2324886.8
Jalna,Maharashtra,27,18,514,75.981886,19.818195,-26042.5,2199187.1
Jalor,Rajasthan,8,18,116,72.211864,25.097771,-388348.1,2804823.8
Jalpaiguri,West Bengal,19,2,328,89.084430,26.660517,1306099.7,2974465.0
Jammu,Jammu & Kashmir,1,21,21,74.788371,32.762518,-82289.3,3642082.1
Jamnagar,Gujarat,24,10,477,69.913560,22.252184,-647456.2,2503144.1
Jamtara,Jharkhand,20,18,363,86.917231,23.976913,1102677.5,2664347.4
Jamui,Bihar,10,36,238,86.295214,24.783801,1035767.6,2751406.8
Janjgir-champa,Chhattisgarh,22,6,405,82.737935,21.926232,679503.7,2425678.7
Jashpur,Chhattisgarh,22,3,402,83.866362,22.800429,794265.7,2524281.6
Jaunpur,Uttar Pradesh,9,63,194,82.575913,25.746000,658063.8,2848499.8
Jhabua,Madhya Pradesh,23,47,464,74.671810,22.890590,-149971.9,2545408.8
Jhajjar,Haryana,6,15,83,76.649414,28.604751,74428.3,3171941.8
Jhalawar,Rajasthan,8,31,129,76.196770,24.328857,12328.0,2699071.0
Jhansi,Uttar Pradesh,9,35,166,78.953975,25.505448,294361.2,2822498.6
Jharsuguda,Odisha,21,2,371,83.954734,21.805985,805502.0,2414280.4
Jhunjhunun,Rajasthan,8,5,103,75.552407,28.091906,-35618.0,3119396.9
Jodhpur,Rajasthan,8,15,113,72.788028,26.750830,-318216.1,2985349.7
Jorhat,Assam,18,13,312,94.256546,26.793961,1824676.2,3033515.7
Junagadh,Gujarat,24,12,479,70.553985,21.221482,-588512.2,2382856.4
Jyotiba Phule Nagar,Uttar Pradesh,9,6,137,78.329360,28.813549,239363.5,3190257.7
Kachchh,Gujarat,24,1,468,69.959958,23.628397,-630872.3,2657124.2
Kaimur (bhabua),Bihar,10,31,233,83.606667,24.991128,763115.7,2766495.1
Kaithal,Haryana,6,5,73,76.418226,29.814022,57036.5,3306995.5
Kalahandi,Odisha,21,26,395,83.109231,19.867699,720859.0,2198222.9
Kamrup,Assam,18,22,321,91.406148,26.118011,1543912.4,2930791.2
Kamrup Metropolitan,Assam,18,23,322,91.821599,26.090025,1586152.3,2931121.2
Kancheepuram,Tamil Nadu,33,3,604,79.947867,12.695165,385761.8,1403656.1
Kandhamal,Odisha,21,21,390,84.047243,20.128896,818612.7,2228662.6
Kangra,Himachal Pradesh,2,2,24,76.317689,32.108750,58038.1,3562101.9
Uttar Bastar Kanker,Chhattisgarh,22,14,413,81.129188,20.147721,513501.0,2227833.5
Kannauj,Uttar Pradesh,9,29,160,79.687944,27.011972,369831.2,2988438.3
Kanniyakumari,Tamil Nadu,33,28,629,77.361429,8.306941,99078.0,920072.0
Kannur,Kerala,32,2,589,75.526238,12.000633,-96702.6,1332563.4
Kanpur Dehat,Uttar Pradesh,9,32,163,79.857130,26.444783,386053.7,2925448.4
Kanpur Nagar,Uttar Pradesh,9,33,164,80.215779,26.380524,421770.1,2918063.5
Kansiram Nagar,Uttar Pradesh,9,71,202,78.845370,27.777216,287688.7,3074384.8
Kapurthala,Punjab,3,2,36,75.403072,31.354059,-32723.2,3482407.0
Karbi Anglong,Assam,18,15,314,93.148707,26.065452,1720778.5,2940371.3
Kargil,Jammu & Kashmir,1,4,4,76.484452,33.966601,82672.4,3767652.2
Karimganj,Assam,18,18,317,92.377457,24.581302,1656954.3,2766798.1
Karimnagar,Andhra Pradesh,28,3,534,79.240902,18.549654,314339.3,2051905.8
Karnal,Haryana,6,6,74,76.884748,29.687462,101680.0,3291246.8
Karur,Tamil Nadu,33,12,613,78.133091,10.842978,186520.9,1200093.8
Kasaragod,Kerala,32,1,588,75.153682,12.462818,-136327.3,1384756.0
Kathua,Jammu & Kashmir,1,7,7,75.593799,32.566266,-7800.1,3616123.7
Katihar,Bihar,10,10,212,87.644986,25.545446,1168500.3,2842113.1
Katni,Madhya Pradesh,23,33,450,80.401464,23.754200,439006.4,2627141.8
Kaushambi,Uttar Pradesh,9,43,174,81.453591,25.488742,545589.3,2819144.9
Kendrapara,Odisha,21,10,379,86.609699,20.553126,1085436.6,2282776.3
Kendujhar,Odisha,21,6,375,85.705072,21.537081,987625.0,2388951.2
Khagaria,Bihar,10,21,223,86.603146,25.512183,1063614.2,2833557.9
Khammam,Andhra Pradesh,28,10,541,80.687300,17.596912,466822.3,1945617.7
Kheda,Gujarat,24,16,483,73.016733,22.876275,-320746.2,2552150.3
Kheri,Uttar Pradesh,9,22,153,80.667047,28.122514,467300.2,3110818.8
Khordha,Odisha,21,17,386,85.511418,20.089963,972024.4,2227829.2
Khunti,Jharkhand,20,20,365,85.274546,22.997713,938353.8,2549663.2
Kinnaur,Himachal Pradesh,2,12,34,78.412625,31.596794,254507.2,3498650.2
Kiphire,Nagaland,13,9,269,94.825142,25.844856,1893814.0,2932767.8
Kishanganj,Bihar,10,8,210,87.935283,26.295615,1193355.5,2927071.9
Kishtwar,Jammu & Kashmir,1,18,18,76.014617,33.529576,36859.1,3721145.1
Koch Bihar,West Bengal,19,3,329,89.343576,26.291065,1334740.1,2934965.1
Kodagu,Karnataka,29,22,576,75.803275,12.324364,-65735.5,1367908.9
Kodarma,Jharkhand,20,3,348,85.595598,24.437036,966162.1,2710359.1
Kohima,Nagaland,13,10,270,94.129076,25.781039,1823582.2,2918168.5
Kokrajhar,Assam,18,1,300,90.130629,26.514508,1412089.0,2965290.3
Kolar,Karnataka,29,27,581,78.217693,13.139328,198345.0,1454209.5
Kolasib,Mizoram,15,2,282,92.726936,24.197972,1696504.0,2726812.9
Kolhapur,Maharashtra,27,34,530,74.159752,16.469725,-231583.7,1833318.3
Kolkata,West Bengal,19,16,342,88.355840,22.555257,1257763.5,2513016.7
Kollam,Kerala,32,13,600,76.874870,8.960991,46166.3,993087.4
Koppal,Karnataka,29,6,560,76.221866,15.561749,-12832.0,1726205.9
Koraput,Odisha,21,29,398,82.721266,18.816546,681382.4,2081407.8
Korba,Chhattisgarh,22,5,404,82.611911,22.532313,665770.3,2492642.2
Koriya,Chhattisgarh,22,1,400,82.237190,23.468141,626354.4,2595887.7
Kota,Rajasthan,8,29,127,76.129317,25.124130,8614.7,2787574.8
Kottayam,Kerala,32,10,597,76.650919,9.637065,22404.9,1068324.4
Kozhikode,Kerala,32,4,591,75.834361,11.484801,-64080.7,1274658.1
Krishna,Andhra Pradesh,28,16,547,80.800667,16.562644,478733.7,1831184.1
Krishnagiri,Tamil Nadu,33,30,631,78.032694,12.489038,177444.1,1382438.9
Kulgam,Jammu & Kashmir,1,15,15,74.860575,33.588189,-70109.4,3733433.7
Kullu,Himachal Pradesh,2,4,26,77.400218,31.904467,159529.7,3535503.9
Kupwara,Jammu & Kashmir,1,1,1,74.266054,34.531932,-118473.5,3841797.1
Kurnool,Andhra Pradesh,28,21,552,78.006150,15.533622,178824.8,1719597.0
Kurukshetra,Haryana,6,4,72,76.786201,30.045070,93588.6,3331270.5
Kurung Kumey,Arunanchal Pradesh,12,12,256,93.392404,27.999829,1723804.7,3159951.1
Kushinagar,Uttar Pradesh,9,58,189,83.934855,26.861710,791613.5,2974495.1
Lahul & Spiti,Himachal Pradesh,2,3,25,77.616134,32.480506,181975.1,3598745.0
Lakhimpur,Assam,18,8,307,94.125810,27.168957,1807011.8,3074301.6
Lakhisarai,Bihar,10,25,227,86.131164,25.155466,1017575.7,2792031.6
Lalitpur,Uttar Pradesh,9,36,167,78.561883,24.653336,253235.6,2728754.0
Latehar,Jharkhand,20,14,359,84.443226,23.717787,851117.6,2627229.4
Latur,Maharashtra,27,28,524,76.775085,18.360523,53330.4,2035267.3
Lawangtlai,Mizoram,15,7,287,92.713197,22.383600,1711797.3,2522912.5
Leh (ladakh),Jammu & Kashmir,1,3,3,78.435920,34.338836,264128.2,3802704.8
Lohardaga,Jharkhand,20,11,356,84.670022,23.475683,874954.9,2600967.5
Lohit,Arunanchal Pradesh,12,15,259,96.195209,27.840119,2006190.6,3174209.1
Longleng,Nagaland,13,8,268,94.800309,26.555401,1882591.6,3012593.9
Lower Dibang Valley,Arunanchal Pradesh,12,14,258,95.880395,28.372582,1967060.5,3230340.3
Lower Subansiri,Arunanchal Pradesh,12,11,255,93.939079,27.625542,1782804.6,3123639.5
Lucknow,Uttar Pradesh,9,26,157,80.906732,26.841571,490733.4,2968891.4
Ludhiana,Punjab,3,7,41,75.838153,30.808741,5918.3,3419824.4
Lunglei,Mizoram,15,6,286,92.722582,22.971923,1707489.1,2589085.5
Madhepura,Bihar,10,11,213,86.896288,25.825892,1091605.9,2869695.1
Madhubani,Bihar,10,5,207,86.217927,26.405665,1020829.4,2931176.2
Madurai,Tamil Nadu,33,22,623,78.006294,9.920963,171682.8,1098152.7
Maharajganj,Uttar Pradesh,9,56,187,83.533259,27.202529,750933.9,3011404.5
Mahasamund,Chhattisgarh,22,12,411,82.612820,21.207099,667402.6,2345920.6
Mahbubnagar,Andhra Pradesh,28,7,538,78.146134,16.498531,195322.6,1826237.6
Mahe,Puducherry,34,3,636,75.541538,11.726678,-95627.7,1302109.9
Mahendragarh,Haryana,6,16,84,76.143167,28.172889,22909.5,3125916.2
Mahesana,Gujarat,24,4,471,72.461924,23.608974,-373229.5,2637124.6
Mahoba,Uttar Pradesh,9,38,169,79.696648,25.344272,368840.7,2803708.0
Mainpuri,Uttar Pradesh,9,17,148,79.059074,27.180573,307717.6,3007923.7
Malappuram,Kerala,32,5,592,76.155781,11.132066,-29552.2,1234911.9
Maldah,West Bengal,19,6,332,88.092326,25.136681,1216066.9,2798972.6
Malkangiri,Odisha,21,30,399,81.956331,18.258068,601095.2,2019001.9
Mamit,Mizoram,15,1,281,92.467184,23.754013,1673869.4,2674743.4
Mandi,Himachal Pradesh,2,5,27,76.992944,31.638285,119893.5,3507322.6
Mandla,Madhya Pradesh,23,37,454,80.513442,22.640413,450005.3,2503796.2
Mandsaur,Madhya Pradesh,23,16,433,75.405543,24.211338,-68688.9,2689035.4
Mandya,Karnataka,29,19,573,76.797957,12.610356,43251.3,1397708.5
Mansa,Punjab,3,13,47,75.438946,29.908375,-37269.6,3321659.1
Marigaon,Assam,18,5,304,92.281964,26.284769,1630797.9,2956946.8
Mathura,Uttar Pradesh,9,14,145,77.627641,27.596807,167084.7,3057082.0
Mau,Uttar Pradesh,9,61,192,83.562880,26.043059,756446.4,2882971.6
Mayurbhanj,Odisha,21,7,376,86.411179,21.895172,1059560.7,2431097.7
Medak,Andhra Pradesh,28,4,535,78.215686,17.888002,204964.8,1979997.8
Meerut,Uttar Pradesh,9,7,138,77.793924,29.035726,187749.1,3216186.8
Mewat,Haryana,6,19,87,77.046561,27.981665,111048.2,3101473.8
Mirzapur,Uttar Pradesh,9,68,199,82.619196,24.985413,663426.0,2764308.1
Moga,Punjab,3,8,42,75.168045,30.770013,-58547.9,3418688.3
Mokokchung,Nagaland,13,2,262,94.531756,26.471965,1856391.7,3000238.2
Mon,Nagaland,13,1,261,95.021655,26.731180,1902811.8,3034899.3
Moradabad,Uttar Pradesh,9,4,135,78.708533,28.775232,276297.9,3185237.7
Morena,Madhya Pradesh,23,2,419,77.868817,26.413781,187649.8,2925308.1
Muktsar,Punjab,3,10,44,74.541021,30.294640,-121755.6,3369160.4
Mumbai,Maharashtra,27,23,519,72.849623,18.959628,-360338.3,2116337.1
Mumbai Suburban,Maharashtra,27,22,518,72.885070,19.129580,-355694.6,2135117.6
Munger,Bihar,10,24,226,86.527350,25.209967,1057366.2,2799672.4
Murshidabad,West Bengal,19,7,333,88.231067,24.161151,1235868.1,2691143.0
Muzaffarnagar,Uttar Pradesh,9,2,133,77.592319,29.439016,169402.8,3261462.0
Muzaffarpur,Bihar,10,14,216,85.330759,26.151145,933110.0,2899645.7
Mysore,Karnataka,29,23,577,76.442119,12.208802,3738.4,1353823.5
Nabarangapur,Odisha,21,28,397,82.337664,19.588042,640297.0,2166444.2
Nadia,West Bengal,19,10,336,88.521449,23.482694,1269559.7,2617161.8
Nagaon,Assam,18,6,305,92.842518,26.222955,1688103.5,2955145.5
Nagaur,Rajasthan,8,14,112,74.187948,27.064040,-176415.2,3011880.0
Nagpur,Maharashtra,27,9,505,79.087574,21.176285,301450.7,2342855.1
Nainital,Uttarakhand,5,11,66,79.454722,29.312709,349935.7,3243622.8
Nalanda,Bihar,10,27,229,85.455862,25.220821,949123.0,2796850.9
Nalbari,Assam,18,24,323,91.387668,26.367925,1539779.7,2958597.3
Nalgonda,Andhra Pradesh,28,8,539,79.288681,17.067799,317884.7,1887853.8
Namakkal,Tamil Nadu,33,8,609,78.136139,11.316252,187358.0,1252482.1
Nanded,Maharashtra,27,15,511,77.624008,19.115932,144761.5,2117085.3
Nandurbar,Maharashtra,27,1,497,74.218699,21.549649,-203367.3,2398319.1
Narayanpur,Chhattisgarh,22,16,415,81.081192,19.604265,508514.2,2167692.2
Narmada,Gujarat,24,20,487,73.647533,21.735372,-261855.5,2421707.9
Narsimhapur,Madhya Pradesh,23,35,452,79.087280,22.934566,303861.7,2537552.3
Nashik,Maharashtra,27,20,516,74.071420,20.259216,-224924.4,2255395.9
Navsari,Gujarat,24,23,490,73.089729,20.815173,-325085.4,2322022.1
Nawada,Bihar,10,35,237,85.594136,24.811038,964624.1,2751852.3
Nayagarh,Odisha,21,16,385,84.999438,20.213057,918056.6,2240105.6
Neemuch,Madhya Pradesh,23,15,432,75.144625,24.605643,-93415.4,2733937.1
Sri Potti Sriramulu Nellore,Andhra Pradesh,28,19,550,79.734401,14.426802,363573.2,1595304.8
New Delhi,NCT of Delhi,7,5,94,77.213971,28.610883,129721.5,3170739.8
Nizamabad,Andhra Pradesh,28,2,533,78.143941,18.526102,198459.1,2050782.4
North,NCT of Delhi,7,2,91,77.211537,28.710563,129834.4,3181803.6
North,Sikkim,11,1,241,88.532447,27.743396,1243576.7,3091616.1
North 24 Parganas,West Bengal,19,11,337,88.780323,22.464952,1302204.2,2505192.9
Dima Hasao,Assam,18,16,315,93.034172,25.377052,1716316.6,2861985.9
North East,NCT of Delhi,7,3,92,77.273976,28.707692,135930.1,3181292.5
North Goa,Goa,30,1,585,73.980657,15.552533,-254286.7,1731873.6
North Tripura,Tripura,16,4,292,92.155520,24.130503,1638307.3,2714368.3
North West,NCT of Delhi,7,1,90,77.086867,28.768779,117855.4,3188655.5
Nuapada,Odisha,21,25,394,82.578315,20.465662,664624.9,2263805.8
Osmanabad,Maharashtra,27,29,525,76.038788,18.189067,-25176.4,2018213.5
Pakur,Jharkhand,20,8,353,87.664130,24.563261,1175836.6,2732977.8
Palakkad,Kerala,32,6,593,76.558584,10.794641,14014.1,1196806.0
Palamu,Jharkhand,20,13,358,84.167431,24.202416,821766.4,2680285.8
Pali,Rajasthan,8,20,118,73.520649,25.707873,-251697.2,2864696.6
Palwal,Haryana,6,21,89,77.318350,28.047497,138029.8,3107937.0
Panch Mahals,Gujarat,24,17,484,73.664142,22.903958,-253765.7,2551738.3
Panchkula,Haryana,6,1,69,76.977626,30.685985,114594.5,3401713.1
Panipat,Haryana,6,7,75,76.926338,29.332587,104327.8,3251732.3
Panna,Madhya Pradesh,23,9,426,80.191744,24.420461,418059.0,2701017.7
Papum Pare,Arunanchal Pradesh,12,4,248,93.596939,27.288791,1752465.7,3082218.2
Parbhani,Maharashtra,27,17,513,76.682764,19.285734,46054.4,2138099.9
Pashchim Champaran,Bihar,10,1,203,84.341210,27.079249,831376.8,2999614.5
Pashchim Medinipur,West Bengal,19,18,344,87.267025,22.414271,1145911.5,2492188.5
Pashchimi Singhbhum,Jharkhand,20,23,368,85.519594,22.419703,965475.7,2486295.2
Patan,Gujarat,24,3,470,71.752429,23.769356,-445036.0,2659612.5
Pathanamthitta,Kerala,32,12,599,76.928967,9.284061,52531.6,1028825.3
Patiala,Punjab,3,14,48,76.353968,30.281455,52928.4,3359126.2
Patna,Bihar,10,28,230,85.222159,25.456437,924713.4,2822224.3
Perambalur,Tamil Nadu,33,14,615,78.893015,11.273340,269991.3,1247030.1
Peren,Nagaland,13,11,271,93.623522,25.499570,1775157.4,2881400.1
Phek,Nagaland,13,6,266,94.525521,25.660831,1865421.1,2908789.1
Pilibhit,Uttar Pradesh,9,20,151,79.961698,28.541825,398423.6,3157665.3
Pithoragarh,Uttarakhand,5,7,62,80.347704,30.111977,437157.6,3331372.8
Porbandar,Gujarat,24,11,478,69.778049,21.653474,-666595.3,2437004.2
Prakasam,Andhra Pradesh,28,18,549,79.515797,15.621337,340891.8,1727605.6
Pratapgarh,Rajasthan,8,33,131,74.680960,24.029425,-143447.7,2671972.6
Pratapgarh,Uttar Pradesh,9,42,173,81.831443,25.872555,583300.3,2861834.0
Pudukkottai,Tamil Nadu,33,20,621,78.881243,10.358622,268003.1,1145834.9
Pulwama,Jammu & Kashmir,1,12,12,75.037277,33.932953,-51453.9,3770774.8
Punch,Jammu & Kashmir,1,5,5,74.199162,33.701782,-130800.8,3749922.5
Pune,Maharashtra,27,25,521,74.069082,18.570885,-232762.6,2067511.9
Purba Champaran,Bihar,10,2,204,84.924678,26.618450,890877.5,2950180.5
Purba Medinipur,West Bengal,19,19,345,87.774394,22.020759,1200337.7,2450698.2
Purbi Singhbhum,Jharkhand,20,12,357,86.452660,22.582566,1061101.7,2507585.2
Puri,Odisha,21,18,387,85.720894,19.876548,994647.3,2204759.7
Purnia,Bihar,10,9,211,87.407076,25.816137,1143037.2,2871023.1
Puruliya,West Bengal,19,14,340,86.418326,23.277370,1054709.6,2584611.3
Rae Bareli,Uttar Pradesh,9,27,158,81.231360,26.228795,523109.0,2901042.5
Raichur,Karnataka,29,5,559,76.893147,16.089474,60476.6,1783203.4
Raigarh,Chhattisgarh,22,4,403,83.306032,22.085823,737933.5,2444127.4
Raigarh,Maharashtra,27,24,520,73.214837,18.517195,-323759.8,2065259.3
Raipur,Chhattisgarh,22,11,410,82.173957,21.071287,621956.4,2330486.4
Raisen,Madhya Pradesh,23,29,446,78.118367,23.217070,205073.9,2570475.0
Rajouri,Jammu & Kashmir,1,6,6,74.398775,33.310174,-115035.0,3705183.1
Rajgarh,Madhya Pradesh,23,25,442,76.734644,23.861183,65430.1,2645409.3
Rajkot,Gujarat,24,9,476,70.775040,22.262738,-557501.3,2497920.8
Rajnandgaon,Chhattisgarh,22,9,408,80.819271,21.039406,481222.0,2326519.5
Rajsamand,Rajasthan,8,25,123,73.892302,25.216325,-217153.9,2807917.8
Ramanagara,Karnataka,29,30,584,77.336499,12.678547,101973.0,1404383.6
Ramanathapuram,Tamil Nadu,33,25,626,78.673284,9.440134,244511.0,1044363.9
Ramban,Jammu & Kashmir,1,17,17,75.186098,33.323005,-41493.4,3702220.3
Ramgarh,Jharkhand,20,16,361,85.560568,23.630726,965510.1,2620780.7
Rampur,Uttar Pradesh,9,5,136,79.105475,28.795481,315093.1,3186799.9
Ranchi,Jharkhand,20,19,364,85.370764,23.331312,947121.6,2586959.8
Rangareddy,Andhra Pradesh,28,6,537,78.177394,17.288044,199914.7,1913618.2
Ratlam,Madhya Pradesh,23,17,434,75.090087,23.501002,-104134.0,2611436.8
Ratnagiri,Maharashtra,27,32,528,73.456833,17.273728,-303670.6,1925610.7
Rayagada,Odisha,21,27,396,83.513845,19.362278,764070.6,2142835.0
Reasi,Jammu & Kashmir,1,20,20,74.822304,33.207410,-76189.7,3691333.0
Rewa,Madhya Pradesh,23,13,430,81.589623,24.755159,559616.7,2737965.8
Rewari,Haryana,6,17,85,76.543344,28.235759,62522.4,3131379.0
Ri Bhoi,Meghalaya,17,5,297,91.891024,25.870437,1595245.1,2907122.1
Rohtak,Haryana,6,14,82,76.529180,28.914536,63947.5,3206753.4
Rohtas,Bihar,10,32,234,84.027735,24.979411,805670.9,2766080.7
Rudraprayag,Uttarakhand,5,3,58,79.058902,30.530302,313771.6,3379152.4
Rupnagar,Punjab,3,17,51,76.486418,31.059371,69163.5,3444948.3
Sabar Kantha,Gujarat,24,5,472,73.163690,23.659346,-300826.8,2638582.4
Sagar,Madhya Pradesh,23,10,427,78.758873,23.848030,271746.2,2639207.1
Saharanpur,Uttar Pradesh,9,1,132,77.547691,29.949577,166762.7,3318214.0
Saharsa,Bihar,10,12,214,86.589798,25.816587,1060835.6,2867311.5
Sahibganj,Jharkhand,20,7,352,87.679559,25.008064,1174977.1,2782524.0
Sahibzada Ajit Singh Nagar,Punjab,3,18,52,76.737759,30.680913,91570.3,3402000.5
Saiha,Mizoram,15,8,288,93.012174,22.376698,1743112.2,2524636.8
Salem,Tamil Nadu,33,7,608,78.222146,11.674058,197137.3,1291998.4
Samastipur,Bihar,10,19,221,85.903654,25.776965,992045.2,2860155.9
Samba,Jammu & Kashmir,1,22,22,75.109293,32.575231,-53319.0,3619546.1
Sambalpur,Odisha,21,3,372,84.280934,21.451912,840083.7,2375727.1
Sangli,Maharashtra,27,35,531,74.769901,17.112018,-163846.0,1902596.9
Sangrur,Punjab,3,19,53,75.868619,30.213520,5824.9,3353600.2
Sant Kabir Nagar,Uttar Pradesh,9,55,186,83.034814,26.790160,702283.3,2964813.3
Sant Ravi Das Nagar(bhadohi),Uttar Pradesh,9,67,198,82.464226,25.348074,647345.9,2804296.5
Saraikela-kharsawan,Jharkhand,20,24,369,85.951560,22.844935,1008466.3,2534898.8
Saran (chhapra),Bihar,10,17,219,84.825311,25.904655,883314.0,2870720.8
Satara,Maharashtra,27,31,527,74.173789,17.668588,-225388.4,1966679.6
Satna,Madhya Pradesh,23,12,429,80.833337,24.532723,483119.0,2713218.6
Sehore,Madhya Pradesh,23,28,445,77.128585,22.991185,103014.4,2547788.0
Senapati,Manipur,14,1,272,94.040150,25.196507,1821079.5,2851456.2
Seoni,Madhya Pradesh,23,39,456,79.690237,22.315650,365098.0,2468351.3
Serchhip,Mizoram,15,5,285,92.959209,23.265956,1729360.1,2624147.4
Shahdol,Madhya Pradesh,23,43,460,81.472768,23.629001,548223.0,2613232.5
Shahid Bhagat Singh Nagar,Punjab,3,5,39,76.155963,31.109126,37828.0,3451805.2
Shahjahanpur,Uttar Pradesh,9,21,152,79.844933,27.975739,386401.1,3095052.1
Shajapur,Madhya Pradesh,23,19,436,76.345680,23.579682,24721.5,2615426.4
Sheikhpura,Bihar,10,26,228,85.828919,25.131943,987134.3,2788289.8
Sheohar,Bihar,10,3,205,85.289930,26.527042,927634.2,2941211.4
Sheopur,Madhya Pradesh,23,1,418,77.010434,25.752466,99697.8,2854333.3
Shimla,Himachal Pradesh,2,11,33,77.632389,31.197043,179084.1,3456328.2
Shimoga,Karnataka,29,14,568,75.220650,14.043553,-124940.5,1560210.3
Shivpuri,Madhya Pradesh,23,6,423,77.812508,25.362674,179196.2,2808932.1
Shrawasti,Uttar Pradesh,9,50,181,81.883967,27.654697,587191.3,3059264.5
Shupiyan,Jammu & Kashmir,1,13,13,74.818688,33.730668,-73054.5,3749498.8
Sivasagar,Assam,18,12,311,94.819994,27.007254,1878941.5,3063731.1
Siddharth Nagar,Uttar Pradesh,9,53,184,82.873443,27.274054,685440.6,3018179.5
Sidhi,Madhya Pradesh,23,45,462,81.835283,24.219784,584814.7,2678813.7
Sikar,Rajasthan,8,13,111,75.287545,27.636597,-64071.7,3070019.0
Simdega,Jharkhand,20,22,367,84.566369,22.580073,866775.8,2501422.1
Sindhudurg,Maharashtra,27,33,529,73.739876,16.134315,-278024.5,1797543.9
Singrauli,Madhya Pradesh,23,46,463,82.420729,24.216670,644270.8,2678949.0
Sirmaur,Himachal Pradesh,2,10,32,77.430961,30.667558,157994.8,3398197.5
Sirohi,Rajasthan,8,19,117,72.774314,24.758906,-333534.3,2763426.4
Sirsa,Haryana,6,11,79,74.901465,29.614793,-91022.3,3291683.4
Sitamarhi,Bihar,10,4,206,85.539693,26.576001,952369.2,2947503.5
Sitapur,Uttar Pradesh,9,23,154,80.857390,27.517716,485916.3,3043787.3
Sivaganga,Tamil Nadu,33,21,622,78.598660,9.915088,236682.9,1096974.9
Siwan,Bihar,10,16,218,84.389549,26.160759,838876.8,2897909.9
Solan,Himachal Pradesh,2,9,31,76.909542,31.042924,109518.7,3441554.5
Solapur,Maharashtra,27,30,526,75.482901,17.789756,-85483.8,1975556.5
Subarnapur,Odisha,21,23,392,83.824863,20.931536,793807.6,2317159.5
Sonbhadra,Uttar Pradesh,9,69,200,83.053516,24.402122,708240.8,2700290.4
Sonipat,Haryana,6,8,76,76.879495,29.061720,98717.8,3221840.5
Sonitpur,Assam,18,7,306,92.939251,26.782366,1691969.9,3018829.0
South,NCT of Delhi,7,9,98,77.227386,28.501361,130651.7,3158550.6
South,Sikkim,11,3,243,88.387874,27.286759,1232304.0,3039920.1
South 24 Parganas,West Bengal,19,17,343,88.416896,22.115958,1266498.4,2464411.9
South Garo Hills,Meghalaya,17,3,295,90.585297,25.301620,1467755.9,2833160.1
South Goa,Goa,30,2,586,74.118436,15.196355,-240687.5,1691744.4
South Tripura,Tripura,16,2,290,91.609550,23.368451,1588598.6,2624598.9
South West,NCT of Delhi,7,8,97,77.027363,28.572377,111313.6,3167061.5
Srikakulam,Andhra Pradesh,28,11,542,83.988096,18.578563,815394.7,2056819.4
Srinagar,Jammu & Kashmir,1,10,10,74.914761,34.175779,-61189.8,3798424.4
Sultanpur,Uttar Pradesh,9,48,179,82.020115,26.274927,601855.2,2906532.2
Sundargarh,Odisha,21,5,374,84.510577,22.079776,862325.5,2445833.2
Supaul,Bihar,10,6,208,86.800091,26.247697,1079843.7,2916124.2
Surat,Gujarat,24,25,492,73.071999,21.265958,-324431.1,2372362.0
Surendranagar,Gujarat,24,8,475,71.540113,22.798192,-474014.9,2552532.0
Surguja,Chhattisgarh,22,2,401,83.219401,23.357765,726882.9,2584867.9
Tamenglong,Manipur,14,2,273,93.527260,24.947273,1771216.3,2818358.3
Tarn Taran,Punjab,3,16,50,74.844609,31.337325,-86072.8,3483398.9
Tawang,Arunanchal Pradesh,12,1,245,91.953578,27.661860,1584098.4,3108239.2
Tehri Garhwal,Uttarakhand,5,4,59,78.537018,30.437350,263463.9,3369825.4
Thane,Maharashtra,27,21,517,73.150900,19.599155,-325129.4,2186167.0
Thanjavur,Tamil Nadu,33,19,620,79.241305,10.671518,307635.4,1180206.3
The Dangs,Gujarat,24,22,489,73.701288,20.804353,-261080.2,2317777.7
The Nilgiris,Tamil Nadu,33,10,611,76.641877,11.455893,24222.9,1269987.5
Theni,Tamil Nadu,33,23,624,77.439358,9.890243,109401.2,1095364.0
Thiruvallur,Tamil Nadu,33,1,602,79.939968,13.243085,385155.7,1464261.3
Thiruvananthapuram,Kerala,32,14,601,77.015000,8.608458,61191.7,953851.7
Thiruvarur,Tamil Nadu,33,18,619,79.535996,10.679886,339880.2,1180963.8
Thoothukkudi,Tamil Nadu,33,26,627,78.004430,8.890839,170502.9,984115.8
Thoubal,Manipur,14,5,276,93.971612,24.530826,1821319.8,2775821.3
Thrissur,Kerala,32,7,594,76.316150,10.471178,-13109.7,1161326.3
Tikamgarh,Madhya Pradesh,23,7,424,78.946663,24.988304,292750.0,2765221.9
Tinsukia,Assam,18,10,309,95.626500,27.578576,1952696.8,3137598.4
Tirap,Arunanchal Pradesh,12,10,254,95.440928,26.947124,1942447.3,3064117.0
Tiruchirappalli,Tamil Nadu,33,13,614,78.570439,10.888914,234412.1,1204760.8
Tirunelveli,Tamil Nadu,33,27,628,77.541954,8.798697,119482.8,974354.9
Tiruppur,Tamil Nadu,33,32,633,77.405415,10.838129,106859.7,1200402.5
Tiruvannamalai,Tamil Nadu,33,5,606,79.167693,12.431083,300828.2,1374908.5
Tonk,Rajasthan,8,22,120,75.671866,26.145780,-33040.4,2902770.5
Tuensang,Nagaland,13,7,267,94.905752,26.200192,1897686.3,2973725.0
Tumkur,Karnataka,29,17,571,76.947667,13.520228,61164.6,1498299.4
Udaipur,Rajasthan,8,32,130,73.706403,24.407655,-240809.9,2718916.2
Udalguri,Assam,18,27,326,92.037268,26.730067,1601741.9,3004660.3
Udhampur,Jammu & Kashmir,1,19,19,75.327634,32.894046,-30879.0,3653841.2
Udham Singh Nagar,Uttarakhand,5,12,67,79.523466,29.027456,356215.2,3211926.7
Udupi,Karnataka,29,15,569,74.883498,13.466689,-163151.8,1497012.3
Ujjain,Madhya Pradesh,23,18,435,75.668392,23.331689,-45591.2,2590311.9
Ukhrul,Manipur,14,8,279,94.433985,25.020252,1863454.8,2835635.0
Umaria,Madhya Pradesh,23,14,431,80.971893,23.564404,497131.7,2606001.6
Una,Himachal Pradesh,2,7,29,76.210080,31.580659,45278.7,3503925.0
Unnao,Uttar Pradesh,9,25,156,80.559350,26.609176,456130.5,2943224.7
Upper Siang,Arunanchal Pradesh,12,8,252,94.918055,28.833555,1864968.0,3270521.5
Upper Subansiri,Arunanchal Pradesh,12,5,249,93.936737,28.289952,1774528.5,3198272.8
Uttar Dinajpur,West Bengal,19,4,330,88.158248,25.880980,1218264.8,2882156.1
Uttara Kannada,Karnataka,29,9,563,74.622917,14.794090,-187479.0,1645350.3
Uttarkashi,Uttarakhand,5,1,56,78.603884,30.973055,271156.4,3429079.2
Vadodara,Gujarat,24,19,486,73.531919,22.233081,-271164.3,2477716.8
Vaishali,Bihar,10,18,220,85.370015,25.762314,938483.5,2856639.4
Valsad,Gujarat,24,24,491,73.114709,20.418519,-324623.9,2277680.1
Varanasi,Uttar Pradesh,9,66,197,82.917583,25.388050,692913.5,2809301.5
Vellore,Tamil Nadu,33,4,605,79.010374,12.812269,284041.9,1417207.2
Vidisha,Madhya Pradesh,23,26,443,77.813360,23.892709,175502.1,2646005.4
Viluppuram,Tamil Nadu,33,6,607,79.292148,11.973468,314041.3,1324194.8
Virudunagar,Tamil Nadu,33,24,625,77.943090,9.483973,164309.7,1049836.2
Visakhapatnam,Andhra Pradesh,28,13,544,82.692473,17.890899,679300.8,1978928.8
Vizianagaram,Andhra Pradesh,28,12,543,83.379276,18.467380,751262.6,2043549.1
Warangal,Andhra Pradesh,28,9,540,79.799226,17.955165,372843.3,1985636.0
Wardha,Maharashtra,27,8,504,78.587639,20.795772,248890.9,2301423.0
Washim,Maharashtra,27,6,502,77.219042,20.237560,104869.1,2242284.4
Wayanad,Kerala,32,3,590,76.098133,11.711246,-34776.9,1299275.9
West,NCT of Delhi,7,7,96,77.065700,28.655321,115370.8,3176138.1
West,Sikkim,11,2,242,88.177943,27.349122,1211029.7,3045636.3
West Garo Hills,Meghalaya,17,1,293,90.144814,25.585050,1420848.1,2861647.8
West Godavari,Andhra Pradesh,28,15,546,81.402263,16.894620,542842.3,1867941.1
West Kameng,Arunanchal Pradesh,12,2,246,92.410975,27.302869,1633449.9,3072204.8
West Khasi Hills,Meghalaya,17,4,296,91.260782,25.526494,1534450.8,2863449.7
West Nimar,Madhya Pradesh,23,23,440,75.774508,21.920479,-40223.8,2433239.4
West Siang,Arunanchal Pradesh,12,6,250,94.511613,28.320870,1831335.7,3208122.9
West Tripura,Tripura,16,1,289,91.464871,23.802233,1570048.4,2672069.0
Wokha,Nagaland,13,4,264,94.192629,26.184872,1825390.1,2964287.4
Yadgir,Karnataka,29,26,580,76.913636,16.626412,63870.3,1842683.0
Yavatmal,Maharashtra,27,14,510,78.162227,20.083941,203218.4,2223295.6
Zunheboto,Nagaland,13,3,263,94.525282,26.031634,1861014.1,2950566.7
Kabeerdham,Chhattisgarh,22,8,407,81.223075,22.091031,523011.3,2442919.7
Yamunanagar,Haryana,6,3,71,77.304982,30.236438,144349.6,3350765.1
Jind,Haryana,6,9,77,76.300931,29.435381,43976.1,3265426.8
Dausa,Rajasthan,8,11,109,76.513947,26.856096,54078.8,2978393.5
Karauli,Rajasthan,8,9,107,76.963851,26.520679,97667.5,2939682.4
Sawai Madhopur,Rajasthan,8,10,108,76.467921,26.216853,46986.1,2907625.2
Arwal,Bihar,10,38,240,84.690404,25.161580,872074.4,2787938.8
Jehanabad,Bihar,10,37,239,85.030135,25.156570,906378.4,2788366.9
Nagappattinam,Tamil Nadu,33,17,618,79.738900,10.849429,362152.7,1199616.4
Karaikal,Puducherry,34,4,637,79.802063,10.934378,369094.9,1208983.2
Puducherry,Puducherry,34,2,635,79.732999,11.912098,362020.5,1317148.6
Yanam,Puducherry,34,1,634,82.254560,16.726649,633740.4,1849737.5
Tapi,Gujarat,24,26,493,73.631189,21.191573,-266421.6,2361234.1
Nicobar,Andaman & Nicobar Island,35,1,638,93.602851,7.516872,1901437.8,851300.0
South Andaman,Andaman & Nicobar Island,35,3,640,92.648960,11.519264,1778478.6,1299618.1
North & Middle Andaman,Andaman & Nicobar Island,35,2,639,92.867521,12.837902,1796189.5,1449355.3
Lakshadweep,Lakshadweep,31,1,587,72.735057,11.091062,-405547.4,1238677.5
